[[{"continent":"NA","country":"US","gpsCode":"KATL","city":null,"municipality":"Atlanta","type":null,"iata":"ATL","name":"Hartsfield Jackson Atlanta International Airport","icao":"KATL","position":{"altitude":312.7248,"reasonable":true,"latitude":33.63669967651367,"longitude":-84.4281005859375},"wikipedia":"http://en.wikipedia.org/wiki/Hartsfield-Jackson_Atlanta_International_Airport","region":"US-GA","homepage":"http://www.atlanta-airport.com/"}],[{"continent":"EU","country":"NL","gpsCode":"EHAM","city":null,"municipality":"Amsterdam","type":null,"iata":"AMS","name":"Amsterdam Airport Schiphol","icao":"EHAM","position":{"altitude":-3.3528000000000002,"reasonable":true,"latitude":52.3086013794,"longitude":4.763889789579999},"wikipedia":"http://en.wikipedia.org/wiki/Amsterdam_Schiphol_Airport","region":"NL-NH","homepage":"http://www.schiphol.nl/"}],[{"continent":"EU","country":"DE","gpsCode":"EDDF","city":null,"municipality":"Frankfurt am Main","type":null,"iata":"FRA","name":"Frankfurt am Main Airport","icao":"EDDF","position":{"altitude":110.94720000000001,"reasonable":true,"latitude":50.033333,"longitude":8.570556},"wikipedia":"http://en.wikipedia.org/wiki/Frankfurt_Airport","region":"DE-HE","homepage":"http://www.frankfurt-airport.de/"}],[{"continent":"AS","country":"JP","gpsCode":"RJAA","city":null,"municipality":"Tokyo","type":null,"iata":"NRT","name":"Narita International Airport","icao":"RJAA","position":{"altitude":42.976800000000004,"reasonable":true,"latitude":35.7647018433,"longitude":140.386001587},"wikipedia":"http://en.wikipedia.org/wiki/Narita_International_Airport","region":"JP-12","homepage":""}],[{"continent":"EU","country":"FR","gpsCode":"LFML","city":null,"municipality":"Marseille","type":null,"iata":"MRS","name":"Marseille Provence Airport","icao":"LFML","position":{"altitude":22.555200000000003,"reasonable":true,"latitude":43.439271922,"longitude":5.22142410278},"wikipedia":"http://en.wikipedia.org/wiki/Marseille_Provence_Airport","region":"FR-U","homepage":""}],[{"continent":"EU","country":"ES","gpsCode":"LEMD","city":null,"municipality":"Madrid","type":null,"iata":"MAD","name":"Adolfo Suárez Madrid\u2013Barajas Airport","icao":"LEMD","position":{"altitude":608.9904,"reasonable":true,"latitude":40.471926,"longitude":-3.56264},"wikipedia":"http://en.wikipedia.org/wiki/Adolfo_Su%C3%A1rez_Madrid%E2%80%93Barajas_Airport#cite_note-1","region":"ES-M","homepage":"http://www.aena.es/csee/Satellite?cid=1049727006353&pagename=subHome&SiteName=MAD&c=Page&Language=EN"}],[{"continent":"EU","country":"CH","gpsCode":"LSZH","city":null,"municipality":"Zurich","type":null,"iata":"ZRH","name":"Zürich Airport","icao":"LSZH","position":{"altitude":431.59680000000003,"reasonable":true,"latitude":47.464699,"longitude":8.54917},"wikipedia":"http://en.wikipedia.org/wiki/Z%C3%BCrich_Airport","region":"CH-ZH","homepage":"http://www.zurich-airport.com/"}],[{"continent":"AS","country":"IN","gpsCode":"VIDP","city":null,"municipality":"New Delhi","type":null,"iata":"DEL","name":"Indira Gandhi International Airport","icao":"VIDP","position":{"altitude":236.8296,"reasonable":true,"latitude":28.5665,"longitude":77.103104},"wikipedia":"http://en.wikipedia.org/wiki/Indira_Gandhi_International_Airport","region":"IN-DL","homepage":"http://www.newdelhiairport.in/"}],[{"continent":"AS","country":"IN","gpsCode":"VABB","city":null,"municipality":"Mumbai","type":null,"iata":"BOM","name":"Chhatrapati Shivaji International Airport","icao":"VABB","position":{"altitude":11.8872,"reasonable":true,"latitude":19.0886993408,"longitude":72.8678970337},"wikipedia":"http://en.wikipedia.org/wiki/Chhatrapati_Shivaji_International_Airport","region":"IN-MM","homepage":"http://www.csia.in/"}],[{"continent":"AS","country":"SG","gpsCode":"WSSS","city":null,"municipality":"Singapore","type":null,"iata":"SIN","name":"Singapore Changi Airport","icao":"WSSS","position":{"altitude":6.7056000000000004,"reasonable":true,"latitude":1.35019,"longitude":103.994003},"wikipedia":"https://en.wikipedia.org/wiki/Singapore_Changi_Airport","region":"SG-04","homepage":"http://www.changiairport.com/"}],[{"continent":"OC","country":"NZ","gpsCode":"NZAA","city":null,"municipality":"Auckland","type":null,"iata":"AKL","name":"Auckland International Airport","icao":"NZAA","position":{"altitude":7.010400000000001,"reasonable":true,"latitude":-37.008098602299995,"longitude":174.792007446},"wikipedia":"http://en.wikipedia.org/wiki/Auckland_International_Airport","region":"NZ-AUK","homepage":"http://www.auckland-airport.co.nz/"}],[{"continent":"NA","country":"CA","gpsCode":"CYYZ","city":null,"municipality":"Toronto","type":null,"iata":"YYZ","name":"Lester B. Pearson International Airport","icao":"CYYZ","position":{"altitude":173.43120000000002,"reasonable":true,"latitude":43.6772003174,"longitude":-79.63059997559999},"wikipedia":"http://en.wikipedia.org/wiki/Toronto_Pearson_International_Airport","region":"CA-ON","homepage":"http://www.gtaa.com/"}],[],[{"continent":"SA","country":"CL","gpsCode":"SCEL","city":null,"municipality":"Santiago","type":null,"iata":"SCL","name":"Comodoro Arturo Merino Benítez International Airport","icao":"SCEL","position":{"altitude":473.964,"reasonable":true,"latitude":-33.393001556396484,"longitude":-70.78579711914062},"wikipedia":"http://en.wikipedia.org/wiki/Comodoro_Arturo_Merino_Ben%C3%ADtez_International_Airport","region":"CL-RM","homepage":"http://www.aeropuertosantiago.cl/ingles/index.php"}],[],[{"continent":"EU","country":"NL","gpsCode":"EHAM","city":null,"municipality":"Amsterdam","type":null,"iata":"AMS","name":"Amsterdam Airport Schiphol","icao":"EHAM","position":{"altitude":-3.3528000000000002,"reasonable":true,"latitude":52.3086013794,"longitude":4.763889789579999},"wikipedia":"http://en.wikipedia.org/wiki/Amsterdam_Schiphol_Airport","region":"NL-NH","homepage":"http://www.schiphol.nl/"}],[{"continent":"AS","country":"JP","gpsCode":"RJBB","city":null,"municipality":"Osaka","type":null,"iata":"KIX","name":"Kansai International Airport","icao":"RJBB","position":{"altitude":7.9248,"reasonable":true,"latitude":34.42729949951172,"longitude":135.24400329589844},"wikipedia":"http://en.wikipedia.org/wiki/Kansai_International_Airport","region":"JP-27","homepage":"http://www.kansai-airport.or.jp/en/index.asp"}],[],[],[{"continent":"AS","country":"IN","gpsCode":"VIDP","city":null,"municipality":"New Delhi","type":null,"iata":"DEL","name":"Indira Gandhi International Airport","icao":"VIDP","position":{"altitude":236.8296,"reasonable":true,"latitude":28.5665,"longitude":77.103104},"wikipedia":"http://en.wikipedia.org/wiki/Indira_Gandhi_International_Airport","region":"IN-DL","homepage":"http://www.newdelhiairport.in/"}],[],[],[{"continent":"AS","country":"CN","gpsCode":"ZSPD","city":null,"municipality":"Shanghai","type":null,"iata":"PVG","name":"Shanghai Pudong International Airport","icao":"ZSPD","position":{"altitude":3.9624,"reasonable":true,"latitude":31.143400192260742,"longitude":121.80500030517578},"wikipedia":"http://en.wikipedia.org/wiki/Shanghai_Pudong_International_Airport","region":"CN-31","homepage":""}],[],[],[{"continent":null,"country":null,"gpsCode":null,"city":null,"municipality":null,"type":null,"iata":"DOH","name":"Hamad International Airport","icao":"OTHH","position":{"altitude":10.972800000000001,"reasonable":true,"latitude":25.273056,"longitude":51.608056},"wikipedia":null,"region":null,"homepage":null}],[],[{"continent":"SA","country":"BR","gpsCode":"SBGR","city":null,"municipality":"São Paulo","type":null,"iata":"GRU","name":"Guarulhos - Governador André Franco Montoro International Airport","icao":"SBGR","position":{"altitude":749.5032,"reasonable":true,"latitude":-23.435556411743164,"longitude":-46.47305679321289},"wikipedia":"http://en.wikipedia.org/wiki/S%C3%A3o_Paulo-Guarulhos_International_Airport","region":"BR-SP","homepage":""}],[],[],[{"continent":"EU","country":"FR","gpsCode":"LFPG","city":null,"municipality":"Paris","type":null,"iata":"CDG","name":"Charles de Gaulle International Airport","icao":"LFPG","position":{"altitude":119.4816,"reasonable":true,"latitude":49.0127983093,"longitude":2.54999995232},"wikipedia":"http://en.wikipedia.org/wiki/Charles_de_Gaulle_International_Airport","region":"FR-J","homepage":"http://www.aeroportsdeparis.fr/"}],[],[],[],[{"continent":"EU","country":"CH","gpsCode":"LSZH","city":null,"municipality":"Zurich","type":null,"iata":"ZRH","name":"Zürich Airport","icao":"LSZH","position":{"altitude":431.59680000000003,"reasonable":true,"latitude":47.464699,"longitude":8.54917},"wikipedia":"http://en.wikipedia.org/wiki/Z%C3%BCrich_Airport","region":"CH-ZH","homepage":"http://www.zurich-airport.com/"}],[],[],[],[{"continent":"AS","country":"IN","gpsCode":"VABB","city":null,"municipality":"Mumbai","type":null,"iata":"BOM","name":"Chhatrapati Shivaji International Airport","icao":"VABB","position":{"altitude":11.8872,"reasonable":true,"latitude":19.0886993408,"longitude":72.8678970337},"wikipedia":"http://en.wikipedia.org/wiki/Chhatrapati_Shivaji_International_Airport","region":"IN-MM","homepage":"http://www.csia.in/"}],[],[{"continent":"AS","country":"AE","gpsCode":"OMDB","city":null,"municipality":"Dubai","type":null,"iata":"DXB","name":"Dubai International Airport","icao":"OMDB","position":{"altitude":18.8976,"reasonable":true,"latitude":25.2527999878,"longitude":55.3643989563},"wikipedia":"http://en.wikipedia.org/wiki/Dubai_International_Airport","region":"AE-DU","homepage":"http://www.dubaiairport.com/dia/english/home/"}],[],[],[{"continent":"AS","country":"AE","gpsCode":"OMAA","city":null,"municipality":"Abu Dhabi","type":null,"iata":"AUH","name":"Abu Dhabi International Airport","icao":"OMAA","position":{"altitude":26.822400000000002,"reasonable":true,"latitude":24.433000564575195,"longitude":54.651100158691406},"wikipedia":"http://en.wikipedia.org/wiki/Abu_Dhabi_International_Airport","region":"AE-AZ","homepage":"http://www.abudhabiairport.ae/"}],[],[],[],[{"continent":"EU","country":"ES","gpsCode":"LEBL","city":null,"municipality":"Barcelona","type":null,"iata":"BCN","name":"Barcelona International Airport","icao":"LEBL","position":{"altitude":3.6576000000000004,"reasonable":true,"latitude":41.297100067139,"longitude":2.0784599781036},"wikipedia":"http://en.wikipedia.org/wiki/Barcelona_International_Airport","region":"ES-CT","homepage":"http://www.aena.es/csee/Satellite?cid=1045569607459&pagename=subHome&Language=EN_GB&SiteName=BCN&c=P"}],[],[],[{"continent":"EU","country":"RU","gpsCode":"UUEE","city":null,"municipality":"Moscow","type":null,"iata":"SVO","name":"Sheremetyevo International Airport","icao":"UUEE","position":{"altitude":189.5856,"reasonable":true,"latitude":55.972599,"longitude":37.4146},"wikipedia":"http://en.wikipedia.org/wiki/Sheremetyevo_International_Airport","region":"RU-MOS","homepage":"http://www.svo.aero/en/"}],[{"continent":"EU","country":"GB","gpsCode":"EGKK","city":null,"municipality":"London","type":null,"iata":"LGW","name":"London Gatwick Airport","icao":"EGKK","position":{"altitude":61.5696,"reasonable":true,"latitude":51.148101806640625,"longitude":-0.19027799367904663},"wikipedia":"http://en.wikipedia.org/wiki/London_Gatwick_Airport","region":"GB-ENG","homepage":"http://www.gatwickairport.com/"}],[],[],[{"continent":"AS","country":"JP","gpsCode":"RJCC","city":null,"municipality":"Chitose / Tomakomai","type":null,"iata":"CTS","name":"New Chitose Airport","icao":"RJCC","position":{"altitude":24.9936,"reasonable":true,"latitude":42.77519989013672,"longitude":141.69200134277344},"wikipedia":"http://en.wikipedia.org/wiki/New_Chitose_Airport","region":"JP-01","homepage":"http://www.new-chitose-airport.jp/language/english/"}],[],[],[{"continent":"AS","country":"KH","gpsCode":"VDSR","city":null,"municipality":"Siem Reap","type":null,"iata":"REP","name":"Siem Reap International Airport","icao":"VDSR","position":{"altitude":18.288,"reasonable":true,"latitude":13.410699844400002,"longitude":103.81300354},"wikipedia":"http://en.wikipedia.org/wiki/Siem_Reap_International_Airport","region":"KH-17","homepage":"http://www.cambodia-airports.com/siemreap/en"}],[{"continent":"NA","country":"MX","gpsCode":"MMMX","city":null,"municipality":"Mexico City","type":null,"iata":"MEX","name":"Licenciado Benito Juarez International Airport","icao":"MMMX","position":{"altitude":2229.9168,"reasonable":true,"latitude":19.4363,"longitude":-99.072098},"wikipedia":"http://en.wikipedia.org/wiki/Mexico_City_International_Airport","region":"MX-DIF","homepage":"https://www.aicm.com.mx"}],[],[{"continent":"EU","country":"DE","gpsCode":"EDDH","city":null,"municipality":"Hamburg","type":null,"iata":"HAM","name":"Hamburg Airport","icao":"EDDH","position":{"altitude":16.154400000000003,"reasonable":true,"latitude":53.630401611328,"longitude":9.9882297515869},"wikipedia":"http://en.wikipedia.org/wiki/Hamburg_Airport","region":"DE-HH","homepage":"https://www.hamburg-airport.de/en/"}],[{"continent":"EU","country":"IE","gpsCode":"EIDW","city":null,"municipality":"Dublin","type":null,"iata":"DUB","name":"Dublin Airport","icao":"EIDW","position":{"altitude":73.7616,"reasonable":true,"latitude":53.42129898071289,"longitude":-6.2700700759887695},"wikipedia":"http://en.wikipedia.org/wiki/Dublin_Airport","region":"IE-D","homepage":"http://www.dublinairport.com/"}],[{"continent":"EU","country":"AT","gpsCode":"LOWW","city":null,"municipality":"Vienna","type":null,"iata":"VIE","name":"Vienna International Airport","icao":"LOWW","position":{"altitude":182.88,"reasonable":true,"latitude":48.110298156738,"longitude":16.569700241089},"wikipedia":"http://en.wikipedia.org/wiki/Vienna_International_Airport","region":"AT-9","homepage":"http://www.viennaairport.com/en/"}],[{"continent":"EU","country":"DE","gpsCode":"EDDS","city":null,"municipality":"Stuttgart","type":null,"iata":"STR","name":"Stuttgart Airport","icao":"EDDS","position":{"altitude":388.9248,"reasonable":true,"latitude":48.689899444599995,"longitude":9.22196006775},"wikipedia":"http://en.wikipedia.org/wiki/Stuttgart_Airport","region":"DE-BW","homepage":"http://www.flughafen-stuttgart.de/"}],[],[],[{"continent":"EU","country":"PL","gpsCode":"EPWA","city":null,"municipality":"Warsaw","type":null,"iata":"WAW","name":"Warsaw Chopin Airport","icao":"EPWA","position":{"altitude":110.33760000000001,"reasonable":true,"latitude":52.1656990051,"longitude":20.967100143399996},"wikipedia":"http://en.wikipedia.org/wiki/Warsaw_Frederic_Chopin_Airport","region":"PL-MZ","homepage":"http://www.lotnisko-chopina.pl/?lang=en"}],[],[],[],[{"continent":"AS","country":"JP","gpsCode":"RJTT","city":null,"municipality":"Tokyo","type":null,"iata":"HND","name":"Tokyo Haneda International Airport","icao":"RJTT","position":{"altitude":10.668000000000001,"reasonable":true,"latitude":35.552299,"longitude":139.779999},"wikipedia":"http://en.wikipedia.org/wiki/Tokyo_International_Airport","region":"JP-13","homepage":"http://www.haneda-airport.jp/"}],[],[],[],[{"continent":"EU","country":"DE","gpsCode":"EDDB","city":null,"municipality":"Berlin","type":null,"iata":"BER","name":"Berlin Brandenburg Airport","icao":"EDDB","position":{"altitude":47.8536,"reasonable":true,"latitude":52.380001,"longitude":13.5225},"wikipedia":"http://en.wikipedia.org/wiki/Berlin-Sch%C3%B6nefeld_International_Airport","region":"DE-BR","homepage":"http://www.berlin-airport.de/en/travellers-sxf/index.php"}],[{"continent":"EU","country":"RU","gpsCode":"UUEE","city":null,"municipality":"Moscow","type":null,"iata":"SVO","name":"Sheremetyevo International Airport","icao":"UUEE","position":{"altitude":189.5856,"reasonable":true,"latitude":55.972599,"longitude":37.4146},"wikipedia":"http://en.wikipedia.org/wiki/Sheremetyevo_International_Airport","region":"RU-MOS","homepage":"http://www.svo.aero/en/"}],[],[],[],[{"continent":"AS","country":"JP","gpsCode":"RJCC","city":null,"municipality":"Chitose / Tomakomai","type":null,"iata":"CTS","name":"New Chitose Airport","icao":"RJCC","position":{"altitude":24.9936,"reasonable":true,"latitude":42.77519989013672,"longitude":141.69200134277344},"wikipedia":"http://en.wikipedia.org/wiki/New_Chitose_Airport","region":"JP-01","homepage":"http://www.new-chitose-airport.jp/language/english/"}],[],[],[{"continent":"AS","country":"KH","gpsCode":"VDSR","city":null,"municipality":"Siem Reap","type":null,"iata":"REP","name":"Siem Reap International Airport","icao":"VDSR","position":{"altitude":18.288,"reasonable":true,"latitude":13.410699844400002,"longitude":103.81300354},"wikipedia":"http://en.wikipedia.org/wiki/Siem_Reap_International_Airport","region":"KH-17","homepage":"http://www.cambodia-airports.com/siemreap/en"}],[],[],[],[],[{"continent":"EU","country":"AT","gpsCode":"LOWW","city":null,"municipality":"Vienna","type":null,"iata":"VIE","name":"Vienna International Airport","icao":"LOWW","position":{"altitude":182.88,"reasonable":true,"latitude":48.110298156738,"longitude":16.569700241089},"wikipedia":"http://en.wikipedia.org/wiki/Vienna_International_Airport","region":"AT-9","homepage":"http://www.viennaairport.com/en/"}],[],[],[],[{"continent":"EU","country":"PL","gpsCode":"EPWA","city":null,"municipality":"Warsaw","type":null,"iata":"WAW","name":"Warsaw Chopin Airport","icao":"EPWA","position":{"altitude":110.33760000000001,"reasonable":true,"latitude":52.1656990051,"longitude":20.967100143399996},"wikipedia":"http://en.wikipedia.org/wiki/Warsaw_Frederic_Chopin_Airport","region":"PL-MZ","homepage":"http://www.lotnisko-chopina.pl/?lang=en"}],[],[],[{"continent":"EU","country":"IT","gpsCode":"LIRF","city":null,"municipality":"Rome","type":null,"iata":"FCO","name":"Leonardo da Vinci\u2013Fiumicino Airport","icao":"LIRF","position":{"altitude":3.9624,"reasonable":true,"latitude":41.8002778,"longitude":12.2388889},"wikipedia":"http://en.wikipedia.org/wiki/Leonardo_da_Vinci%E2%80%93Fiumicino_Airport","region":"IT-62","homepage":"http://www.adr.it/portal/portal/adr/Fiumicino/Leonardo_da_vinci/Header_Window?action=2"}],[{"continent":"NA","country":"US","gpsCode":"PHNL","city":null,"municipality":"Honolulu","type":null,"iata":"HNL","name":"Daniel K Inouye International Airport","icao":"PHNL","position":{"altitude":3.9624,"reasonable":true,"latitude":21.32062,"longitude":-157.924228},"wikipedia":"http://en.wikipedia.org/wiki/Honolulu_International_Airport","region":"US-HI","homepage":"http://hawaii.gov/dot/airports/hnl/"}],[{"continent":"AS","country":"JP","gpsCode":"RJOO","city":null,"municipality":"Osaka","type":null,"iata":"ITM","name":"Osaka International Airport","icao":"RJOO","position":{"altitude":15.24,"reasonable":true,"latitude":34.785499572753906,"longitude":135.43800354003906},"wikipedia":"http://en.wikipedia.org/wiki/Osaka_International_Airport","region":"JP-27","homepage":""}],[],[{"continent":"AS","country":"KR","gpsCode":"RKSI","city":null,"municipality":"Seoul","type":null,"iata":"ICN","name":"Incheon International Airport","icao":"RKSI","position":{"altitude":7.010400000000001,"reasonable":true,"latitude":37.46910095214844,"longitude":126.45099639892578},"wikipedia":"http://en.wikipedia.org/wiki/Incheon_International_Airport","region":"KR-28","homepage":""}],[{"continent":"OC","country":"AU","gpsCode":"YSSY","city":null,"municipality":"Sydney","type":null,"iata":"SYD","name":"Sydney Kingsford Smith International Airport","icao":"YSSY","position":{"altitude":6.4008,"reasonable":true,"latitude":-33.94609832763672,"longitude":151.177001953125},"wikipedia":"http://en.wikipedia.org/wiki/Kingsford_Smith_International_Airport","region":"AU-NSW","homepage":"http://www.sydneyairport.com.au/"}],[],[],[{"continent":"OC","country":"NZ","gpsCode":"NZAA","city":null,"municipality":"Auckland","type":null,"iata":"AKL","name":"Auckland International Airport","icao":"NZAA","position":{"altitude":7.010400000000001,"reasonable":true,"latitude":-37.008098602299995,"longitude":174.792007446},"wikipedia":"http://en.wikipedia.org/wiki/Auckland_International_Airport","region":"NZ-AUK","homepage":"http://www.auckland-airport.co.nz/"}],[],[],[],[{"continent":"NA","country":"CA","gpsCode":"CYYZ","city":null,"municipality":"Toronto","type":null,"iata":"YYZ","name":"Lester B. Pearson International Airport","icao":"CYYZ","position":{"altitude":173.43120000000002,"reasonable":true,"latitude":43.6772003174,"longitude":-79.63059997559999},"wikipedia":"http://en.wikipedia.org/wiki/Toronto_Pearson_International_Airport","region":"CA-ON","homepage":"http://www.gtaa.com/"}],[],[],[],[{"continent":"AS","country":"SG","gpsCode":"WSSS","city":null,"municipality":"Singapore","type":null,"iata":"SIN","name":"Singapore Changi Airport","icao":"WSSS","position":{"altitude":6.7056000000000004,"reasonable":true,"latitude":1.35019,"longitude":103.994003},"wikipedia":"https://en.wikipedia.org/wiki/Singapore_Changi_Airport","region":"SG-04","homepage":"http://www.changiairport.com/"}],[],[],[],[{"continent":"EU","country":"CH","gpsCode":"LSGG","city":null,"municipality":"Geneva","type":null,"iata":"GVA","name":"Geneva Cointrin International Airport","icao":"LSGG","position":{"altitude":430.07280000000003,"reasonable":true,"latitude":46.23809814453125,"longitude":6.108950138092041},"wikipedia":"http://en.wikipedia.org/wiki/Geneva_Cointrin_International_Airport","region":"CH-GE","homepage":"http://www.gva.ch/"}],[{"continent":"EU","country":"IT","gpsCode":"LIRF","city":null,"municipality":"Rome","type":null,"iata":"FCO","name":"Leonardo da Vinci\u2013Fiumicino Airport","icao":"LIRF","position":{"altitude":3.9624,"reasonable":true,"latitude":41.8002778,"longitude":12.2388889},"wikipedia":"http://en.wikipedia.org/wiki/Leonardo_da_Vinci%E2%80%93Fiumicino_Airport","region":"IT-62","homepage":"http://www.adr.it/portal/portal/adr/Fiumicino/Leonardo_da_vinci/Header_Window?action=2"}],[{"continent":"NA","country":"US","gpsCode":"PHNL","city":null,"municipality":"Honolulu","type":null,"iata":"HNL","name":"Daniel K Inouye International Airport","icao":"PHNL","position":{"altitude":3.9624,"reasonable":true,"latitude":21.32062,"longitude":-157.924228},"wikipedia":"http://en.wikipedia.org/wiki/Honolulu_International_Airport","region":"US-HI","homepage":"http://hawaii.gov/dot/airports/hnl/"}],[{"continent":"AS","country":"JP","gpsCode":"RJOO","city":null,"municipality":"Osaka","type":null,"iata":"ITM","name":"Osaka International Airport","icao":"RJOO","position":{"altitude":15.24,"reasonable":true,"latitude":34.785499572753906,"longitude":135.43800354003906},"wikipedia":"http://en.wikipedia.org/wiki/Osaka_International_Airport","region":"JP-27","homepage":""}],[],[],[{"continent":"OC","country":"AU","gpsCode":"YSSY","city":null,"municipality":"Sydney","type":null,"iata":"SYD","name":"Sydney Kingsford Smith International Airport","icao":"YSSY","position":{"altitude":6.4008,"reasonable":true,"latitude":-33.94609832763672,"longitude":151.177001953125},"wikipedia":"http://en.wikipedia.org/wiki/Kingsford_Smith_International_Airport","region":"AU-NSW","homepage":"http://www.sydneyairport.com.au/"}],[],[],[],[{"continent":"EU","country":"FR","gpsCode":"LFMN","city":null,"municipality":"Nice","type":null,"iata":"NCE","name":"Nice-Côte d'Azur Airport","icao":"LFMN","position":{"altitude":3.6576000000000004,"reasonable":true,"latitude":43.6584014893,"longitude":7.215869903560001},"wikipedia":"http://en.wikipedia.org/wiki/C%C3%B4te_d'Azur_International_Airport","region":"FR-U","homepage":""}],[],[]]